City,Lat,Lng,Max Temp,Humidity,Cloudiness,Windspeed,Country,Date
Sheridan,44.8333,-106.9173,37.0,80,90,19.46,US,1609880470
Ikwiriri,-7.9562,38.9716,73.71,96,82,3.33,TZ,1609880633
Honningsvåg,70.9821,25.9704,35.6,85,75,20.8,NO,1609880633
Mawlaik,23.6333,94.4167,61.23,87,96,1.1,MM,1609880633
Sørland,67.667,12.6934,43.74,91,100,25.21,NO,1609880633
Bethel,41.3712,-73.414,36.0,83,98,1.01,US,1609880471
Puerto Ayora,-0.7393,-90.3518,80.6,61,0,10.29,EC,1609880432
São Félix do Xingu,-6.6447,-51.995,82.31,74,98,2.66,BR,1609880510
Coahuayana Viejo,18.7333,-103.6833,82.4,42,40,6.53,MX,1609880634
Hobart,-42.8794,147.3294,60.01,72,75,13.87,AU,1609880473
Papara,-3.9839,-38.7273,82.4,74,0,8.05,BR,1609880634
Mataura,-46.1927,168.8643,60.01,71,51,3.42,NZ,1609880634
Dingle,10.9995,122.6711,74.64,90,92,7.67,PH,1609880634
Kaitangata,-46.2817,169.8464,59.0,82,5,4.0,NZ,1609880634
Padang,-0.9492,100.3543,75.2,94,40,2.24,ID,1609880484
Imeni Poliny Osipenko,52.4201,136.4853,-25.04,84,34,2.17,RU,1609880634
Bluff,-46.6,168.3333,55.89,79,60,5.53,NZ,1609880634
Amapá,1.0,-52.0,77.72,88,91,3.71,BR,1609880448
Jamestown,42.097,-79.2353,33.01,98,90,8.43,US,1609880359
Airai,-8.9266,125.4092,61.36,100,100,1.63,TL,1609880364
Talnakh,69.4865,88.3972,-13.0,75,90,24.61,RU,1609880356
Ati,13.2154,18.3353,79.61,16,47,9.57,TD,1609880635
San Patricio,28.017,-97.5169,73.4,78,40,13.87,US,1609880599
Port Alfred,-33.5906,26.891,71.01,89,96,1.01,ZA,1609880436
Zhigansk,66.7697,123.3711,-38.7,80,100,11.5,RU,1609880501
Kapaa,22.0752,-159.319,77.0,73,90,11.41,US,1609880360
Guerrero Negro,27.9769,-114.0611,69.58,46,80,9.22,MX,1609880460
State College,40.7934,-77.86,35.01,86,90,3.36,US,1609880401
Russell,32.3502,-85.1999,64.4,50,1,13.87,US,1609880637
Castro,-24.7911,-50.0119,70.21,90,99,4.07,BR,1609880320
Qaanaaq,77.484,-69.3632,3.81,82,100,8.16,GL,1609880354
Thompson,55.7435,-97.8558,5.0,84,75,2.24,CA,1609880359
Cabo San Lucas,22.8909,-109.9124,75.0,37,40,5.82,MX,1609880371
Avarua,-21.2078,-159.775,84.2,74,39,13.87,CK,1609880362
George Town,5.4112,100.3354,77.0,94,40,4.7,MY,1609880317
Ushuaia,-54.8,-68.3,59.0,44,75,12.75,AR,1609880353
Vigrestad,58.5667,5.7,26.01,92,0,5.1,NO,1609880638
Halifax,44.6453,-63.5724,35.6,80,100,10.29,CA,1609880259
Hithadhoo,-0.6,73.0833,82.33,77,82,16.49,MV,1609880393
Maniitsoq,65.4167,-52.9,18.68,95,100,10.87,GL,1609880429
Hermanus,-34.4187,19.2345,60.01,90,1,2.77,ZA,1609880354
Vardø,70.3705,31.1107,23.0,92,75,42.5,NO,1609880380
Doha,25.2867,51.5333,66.2,77,0,3.36,QA,1609880331
La Rioja,42.25,-2.5,35.6,96,90,4.7,ES,1609880473
Ratnapura,6.6828,80.3992,74.3,84,21,2.19,LK,1609880640
São João da Barra,-21.6403,-41.0511,86.0,62,0,11.41,BR,1609880442
Ballina,-28.8667,153.5667,75.0,94,36,2.98,AU,1609880431
Punta Arenas,-53.15,-70.9167,57.2,50,40,24.16,CL,1609880431
Rikitea,-23.1203,-134.9692,76.89,76,0,13.2,PF,1609880271
Atuona,-9.8,-139.0333,77.49,73,25,15.41,PF,1609880369
Shache,38.4167,77.2406,15.31,93,91,2.86,CN,1609880641
Bredasdorp,-34.5322,20.0403,60.8,82,1,2.24,ZA,1609880357
Ibotirama,-12.1853,-43.2206,85.96,40,87,6.69,BR,1609880641
Ambilobe,-13.2,49.05,74.89,89,66,2.26,MG,1609880498
Nha Trang,12.25,109.1833,77.0,78,40,13.87,VN,1609880642
Garden City,42.3256,-83.331,36.0,80,90,4.7,US,1609880642
Riyadh,24.6877,46.7219,57.2,62,0,2.24,SA,1609880466
Fortuna,40.5982,-124.1573,57.99,62,100,10.0,US,1609880386
Sackville,45.9188,-64.3846,32.0,90,100,17.22,CA,1609880405
Saldanha,-33.0117,17.9442,65.08,89,0,16.64,ZA,1609880365
Solnechnyy,50.7214,136.6319,-17.34,84,51,1.36,RU,1609880505
Mar del Plata,-38.0023,-57.5575,70.0,94,90,17.22,AR,1609880298
Naze,28.3667,129.4833,59.0,67,90,21.92,JP,1609880504
Yellowknife,62.456,-114.3525,-9.99,76,90,16.11,CA,1609880353
Hilo,19.7297,-155.09,80.6,57,1,5.82,US,1609880410
Cape Town,-33.9258,18.4232,69.01,88,20,14.99,ZA,1609880386
Sitka,57.0531,-135.33,44.6,65,90,23.04,US,1609880437
Cidreira,-30.1811,-50.2056,72.01,90,100,5.61,BR,1609880366
Ulaangom,49.9811,92.0667,-27.49,79,0,0.58,MN,1609880643
Touros,-5.1989,-35.4608,80.6,74,20,10.29,BR,1609880387
Boende,-0.2167,20.8667,73.6,86,49,2.62,CD,1609880487
Palmer,42.1584,-72.3287,39.2,60,75,9.17,US,1609880548
Albany,42.6001,-73.9662,35.01,80,97,3.6,US,1609880353
Norman Wells,65.282,-126.8329,-18.4,75,75,3.36,CA,1609880442
Chokurdakh,70.6333,147.9167,-12.96,90,100,10.8,RU,1609880377
The Valley,18.217,-63.0578,82.4,61,20,10.29,AI,1609880420
Ribeira Grande,38.5167,-28.7,59.0,87,75,31.09,PT,1609880446
Nazca,-14.8333,-74.95,78.71,50,84,7.27,PE,1609880644
Jishou,28.3167,109.7167,35.02,81,35,1.77,CN,1609880645
Saint-Joseph,-21.3667,55.6167,75.2,73,0,4.7,RE,1609880482
Ponta do Sol,32.6667,-17.1,62.6,82,40,2.24,PT,1609880360
Maltahöhe,-24.8333,16.9833,75.4,45,99,9.66,NA,1609880645
Chui,-33.6971,-53.4616,74.8,78,73,17.31,UY,1609880372
Nkongsamba,4.9547,9.9404,69.44,92,8,0.67,CM,1609880645
Vágur,61.4732,-6.8119,44.65,84,100,21.88,FO,1609880645
Carupano,10.6678,-63.2585,78.26,72,24,10.33,VE,1609880645
Quatre Cocos,-20.2078,57.7625,77.0,83,40,10.29,MU,1609880473
Gunnedah,-30.9833,150.25,68.0,88,75,6.93,AU,1609880646
Korla,41.7597,86.1469,12.94,84,34,8.55,CN,1609880362
Ixtapa,20.7,-105.2,75.2,60,5,8.05,MX,1609880427
Djambala,-2.5447,14.7533,70.92,87,33,1.54,CG,1609880646
Mapiri,-15.25,-68.1667,71.78,89,100,3.42,BO,1609880646
Faya,18.3851,42.4509,57.2,93,0,3.36,SA,1609880430
Ciudad del Carmen,18.6333,-91.8333,78.8,69,75,8.05,MX,1609880348
Saint-Philippe,-21.3585,55.7679,75.2,73,0,4.7,RE,1609880356
Yining,29.0361,114.5636,40.46,82,98,2.89,CN,1609880647
Laguna,38.421,-121.4238,54.0,93,75,10.29,US,1609880515
Flin Flon,54.7682,-101.865,17.6,85,90,5.82,CA,1609880262
Sayyan,15.1718,44.3244,43.47,63,4,3.83,YE,1609880647
Saskylakh,71.9167,114.0833,-3.55,89,97,13.42,RU,1609880356
Nanortalik,60.1432,-45.2371,25.95,90,0,6.06,GL,1609880397
Sinegor'ye,62.0788,150.477,-15.07,85,100,1.68,RU,1609880647
Jérémie,18.65,-74.1167,78.76,61,18,3.89,HT,1609880647
Raja,8.4596,25.678,73.58,27,0,4.81,SS,1609880353
Cienfuegos,22.1461,-80.4356,78.8,65,75,10.29,CU,1609880648
Grand Gaube,-20.0064,57.6608,73.99,87,20,17.52,MU,1609880546
Khāsh,28.2211,61.2158,31.03,69,0,3.09,IR,1609880283
St. George's,12.0564,-61.7485,84.2,70,20,16.11,GD,1609880383
Saint Paul Harbor,57.79,-152.4072,39.2,80,90,23.04,US,1609880396
Vestnes,62.6264,7.0884,28.4,68,0,9.17,NO,1609880649
Anking,30.5092,117.0506,36.03,82,80,8.3,CN,1609880649
Bara,10.3744,10.7288,79.65,16,2,9.35,NG,1609880649
Busselton,-33.65,115.3333,59.0,77,18,1.99,AU,1609880352
Bariloche,-41.1456,-71.3082,77.0,16,40,4.7,AR,1609880649
Yangi Marg`ilon,40.4272,71.7189,23.0,79,90,4.7,UZ,1609880377
Nurota,40.5614,65.6886,19.4,92,90,4.7,UZ,1609880649
Arraial do Cabo,-22.9661,-42.0278,86.0,78,20,9.17,BR,1609880448
Bambous Virieux,-20.3428,57.7575,77.0,83,40,10.29,MU,1609880429
Port Elizabeth,-33.918,25.5701,71.6,78,67,5.82,ZA,1609880438
Waren,53.5167,12.6833,37.99,97,100,13.24,DE,1609880650
Erenhot,43.6475,111.9767,-21.19,83,63,12.62,CN,1609880650
Itarema,-2.9248,-39.9167,81.05,74,0,15.79,BR,1609880650
Pitimbu,-7.4706,-34.8086,82.4,69,20,17.22,BR,1609880650
Fuxin,42.0156,121.6589,1.24,78,1,6.53,CN,1609880650
Pevek,69.7008,170.3133,-13.83,90,100,8.46,RU,1609880356
Mongo,12.1844,18.693,75.0,18,0,5.55,TD,1609880651
Imbituba,-28.24,-48.6703,82.4,69,75,10.29,BR,1609880397
Torbat-e Jām,35.244,60.6225,29.75,90,86,9.8,IR,1609880651
Muzhi,65.3667,64.6667,-13.97,88,29,8.48,RU,1609880651
Umm Kaddadah,13.6017,26.6876,71.96,20,0,15.48,SD,1609880472
Tuktoyaktuk,69.4541,-133.0374,-16.6,75,75,3.36,CA,1609880357
Fallon,39.4735,-118.7774,46.0,53,75,5.82,US,1609880399
Upernavik,72.7868,-56.1549,8.15,93,100,17.45,GL,1609880354
Ancud,-41.8697,-73.8203,68.0,56,0,6.93,CL,1609880383
Tabou,4.423,-7.3528,78.73,86,95,8.63,CI,1609880377
Dikson,73.5069,80.5464,15.85,96,100,25.88,RU,1609880364
Morondava,-20.2833,44.2833,81.9,69,5,3.06,MG,1609880652
Phan Thiet,10.9333,108.1,72.46,84,62,5.21,VN,1609880652
Cherskiy,68.75,161.3,-20.61,87,100,10.02,RU,1609880359
Torrevieja,37.9787,-0.6822,48.0,48,100,1.01,ES,1609880652
Port Lincoln,-34.7333,135.8667,59.76,71,100,17.34,AU,1609880454
Nikolskoye,59.7035,30.7861,28.4,86,90,6.71,RU,1609880351
Meulaboh,4.1363,96.1285,77.63,85,82,4.29,ID,1609880412
Verín,41.9415,-7.4381,30.0,93,0,2.64,ES,1609880653
Buchach,49.0625,25.388,37.0,99,100,1.01,UA,1609880653
Sakaiminato,35.55,133.2333,39.2,60,40,10.29,JP,1609880293
Port Hedland,-20.3167,118.5667,77.0,53,75,16.11,AU,1609880653
Yar-Sale,66.8333,70.8333,-13.88,88,25,14.07,RU,1609880478
Bucerías,20.75,-105.3333,75.2,60,5,8.05,MX,1609880653
Lavrentiya,65.5833,-171.0,-11.43,83,3,13.51,RU,1609880391
Roald,62.5833,6.1333,33.8,64,0,9.17,NO,1609880376
Masterton,-40.9597,175.6575,69.01,84,96,1.99,NZ,1609880373
Khatanga,71.9667,102.5,-0.4,93,100,21.88,RU,1609880359
Hamilton,39.1834,-84.5333,35.01,80,90,10.29,US,1609880384
Shimoda,34.6667,138.95,39.0,84,100,5.75,JP,1609880354
Yulara,-25.2406,130.9889,68.0,40,0,6.93,AU,1609880442
Mount Gambier,-37.8333,140.7667,55.4,76,90,14.99,AU,1609880459
Apac,1.9756,32.5386,74.5,44,61,3.31,UG,1609880654
Dhola,21.8833,71.7833,59.31,49,0,9.89,IN,1609880654
Eureka,40.8021,-124.1637,59.0,53,100,5.01,US,1609880655
Kīhei,20.785,-156.4656,80.6,57,20,12.75,US,1609880655
Poum,-20.2333,164.0167,82.09,80,66,6.06,NC,1609880354
Mnogovershinnyy,53.9353,139.9242,-19.16,89,100,4.9,RU,1609880506
Carnarvon,-24.8667,113.6333,75.2,69,77,8.05,AU,1609880281
Barrow,71.2906,-156.7887,-16.6,68,40,6.93,US,1609880272
Petropavlovsk-Kamchatskiy,53.0452,158.6483,19.4,85,90,6.71,RU,1609880394
Tasiilaq,65.6145,-37.6368,19.4,52,40,9.17,GL,1609880272
Marawi,7.9986,124.2928,73.99,92,65,5.99,PH,1609880378
Port Macquarie,-31.4333,152.9167,75.99,77,0,1.01,AU,1609880506
Bonavista,48.6499,-53.1147,35.01,93,100,9.17,CA,1609880387
Marfino,55.7028,37.3822,27.0,92,75,11.18,RU,1609880656
Nemuro,43.3236,145.575,20.75,84,51,9.48,JP,1609880535
Faanui,-16.4833,-151.75,81.28,75,7,13.22,PF,1609880369
Huarmey,-10.0681,-78.1522,73.31,76,95,9.6,PE,1609880396
Jalu,29.0331,21.5482,56.32,57,73,7.2,LY,1609880379
Grindavik,63.8424,-22.4338,35.6,76,90,12.75,IS,1609880453
Bengkulu,-3.8004,102.2655,75.81,89,90,5.35,ID,1609880364
Rock Sound,24.9,-76.2,72.32,70,54,10.74,BS,1609880657
Provideniya,64.3833,-173.3,-2.0,84,0,9.62,RU,1609880374
Nchelenge,-9.3451,28.734,72.93,78,100,4.74,ZM,1609880362
Talcahuano,-36.7167,-73.1167,69.8,56,0,14.99,CL,1609880194
Dawei,14.0833,98.2,73.49,65,9,3.51,MM,1609880658
Linden,6.0,-58.3,82.4,78,75,9.17,GY,1609880658
Comodoro Rivadavia,-45.8667,-67.5,73.4,46,0,27.51,AR,1609880401
Tarakan,3.3,117.6333,75.2,94,75,6.93,ID,1609880658
Beringovskiy,63.05,179.3167,-6.52,85,100,11.97,RU,1609880397
Severo-Kuril'sk,50.6789,156.125,15.42,85,78,6.42,RU,1609880423
Rocha,-34.4833,-54.3333,76.93,66,96,16.55,UY,1609880487
Bandundu Province,-3.3167,17.3667,75.92,78,7,2.13,CD,1609880659
Khani,41.9563,42.9566,53.6,18,0,27.51,GE,1609880509
Ruteng,-8.6136,120.4721,62.49,100,100,0.47,ID,1609880465
Belyy Yar,53.6039,91.3903,-25.6,67,24,2.44,RU,1609880659
Vanderhoof,54.0166,-124.0198,31.66,92,100,12.35,CA,1609880403
Vaini,-21.2,-175.2,80.6,88,40,6.93,TO,1609880352
East London,-33.0153,27.9116,71.87,83,96,12.62,ZA,1609880423
Hobyo,5.3505,48.5268,75.02,68,1,21.12,SO,1609880435
Alyangula,-13.8483,136.4192,78.8,100,75,6.91,AU,1609880482
Hurghada,27.2574,33.8129,64.4,55,0,8.05,EG,1609880660
Maningrida,-12.0667,134.2667,79.03,80,100,4.0,AU,1609880490
Valdivia,-39.8142,-73.2459,82.4,42,0,6.93,CL,1609880516
Isangel,-19.55,169.2667,81.73,80,78,14.63,VU,1609880386
Longyearbyen,78.2186,15.6401,19.4,85,75,14.99,SJ,1609880371
Chapais,49.7834,-74.8492,17.6,92,90,2.24,CA,1609880493
Skibbereen,51.55,-9.2667,33.8,86,75,12.75,IE,1609880661
Winslow,35.0242,-110.6974,55.4,20,1,12.75,US,1609880661
Lebu,-37.6167,-73.65,59.95,73,0,21.07,CL,1609880367
Clyde River,70.4692,-68.5914,-27.4,74,20,1.23,CA,1609880369
Tekirdağ,40.978,27.5085,46.4,81,0,5.82,TR,1609880524
Kosh-Agach,50.0,88.6667,-30.95,78,24,0.76,RU,1609880445
Salalah,17.0151,54.0924,73.4,27,0,6.93,OM,1609880363
Linqiong,30.4159,103.4609,42.8,81,20,4.47,CN,1609880662
Khovd,48.0056,91.6419,-9.15,69,0,2.86,MN,1609880489
Butaritari,3.0707,172.7902,81.45,74,29,21.27,KI,1609880357
Kovdor,67.5662,30.4758,7.54,95,0,4.63,RU,1609880662
Labuhan,-6.8844,112.2051,76.64,88,100,6.71,ID,1609880435
Marzuq,14.4,46.4667,56.48,38,0,2.42,YE,1609880371
Al Bardīyah,31.7561,25.0865,58.21,63,59,7.56,LY,1609880662
Baghdad,33.3406,44.4009,46.4,61,0,4.7,IQ,1609880349
Lüderitz,-26.6481,15.1594,68.0,82,69,12.75,NA,1609880361
Lithgow,-33.4833,150.15,57.0,41,86,5.99,AU,1609880663
Kanniyākumāri,8.0833,77.5667,78.62,81,100,14.72,IN,1609880663
Antalaha,-14.9003,50.2788,74.17,89,3,5.46,MG,1609880663
Esim,4.8699,-2.2405,79.7,85,100,7.49,GH,1609880553
Ureki,41.9956,41.7786,55.4,26,0,18.34,GE,1609880663
Krasnyy Chikoy,50.3643,108.7512,-25.26,81,100,4.94,RU,1609880663
Klaksvík,62.2266,-6.589,44.6,93,100,12.75,FO,1609880389
Parabel',58.6978,81.4825,-22.43,83,0,2.68,RU,1609880418
Turukhansk,65.8167,87.9833,-15.63,89,100,7.4,RU,1609880664
Saint George,37.1041,-113.5841,57.0,32,1,3.0,US,1609880374
Nicoya,10.1483,-85.452,86.0,51,75,20.8,CR,1609880508
Hervey Bay,-25.2986,152.8535,78.01,89,47,3.0,AU,1609880664
Guasdualito,7.2424,-70.7324,85.66,51,72,5.39,VE,1609880664
Sibolga,1.7427,98.7792,76.24,80,83,3.69,ID,1609880433
Khasan,42.4308,130.6434,7.77,81,20,14.16,RU,1609880665
Ucluelet,48.9329,-125.5528,46.0,93,90,34.45,CA,1609880661
Vanavara,60.34,102.2797,-8.84,90,100,5.73,RU,1609880665
Mehamn,71.0357,27.8492,35.6,93,0,14.99,NO,1609880439
Basco,20.4487,121.9702,73.9,82,100,27.07,PH,1609880665
Solton,52.8429,86.4787,-10.17,84,0,7.16,RU,1609880665
Pandan,14.0453,124.1694,78.8,85,15,13.56,PH,1609880666
Luján,-34.5703,-59.105,73.0,88,100,12.57,AR,1609880666
Torgau,51.5667,13.0,35.01,100,90,3.36,DE,1609880666
Sola,-13.8833,167.55,82.47,78,100,12.97,VU,1609880484
Akdepe,42.0551,59.3788,8.6,65,0,4.7,TM,1609880666
Souillac,-20.5167,57.5167,77.0,83,40,10.29,MU,1609880398
Fomboni,-12.28,43.7425,83.35,72,0,9.82,KM,1609880666
Ludvika,60.1496,15.1878,24.8,92,87,5.82,SE,1609880666
Marquette,46.5333,-87.6335,37.99,68,92,3.0,US,1609880454
Banepā,27.6298,85.5214,50.0,87,75,2.24,NP,1609880667
Mutoko,-17.397,32.2268,68.09,78,10,0.76,ZW,1609880365
Pisco,-13.7,-76.2167,78.8,61,0,17.22,PE,1609880598
Ahipara,-35.1667,173.1667,72.25,61,97,1.23,NZ,1609880379
Vila Franca do Campo,37.7167,-25.4333,55.4,87,75,20.8,PT,1609880502
Caniço,32.6333,-16.85,62.6,82,40,2.24,PT,1609880667
Mayo,38.8876,-76.5119,41.0,86,90,7.4,US,1609880667
Hong Kong,22.2855,114.1577,62.01,78,77,11.81,HK,1609880281
Nieves,15.3274,120.9485,75.2,88,75,2.24,PH,1609880668
Kharp,66.8014,65.8081,-10.93,89,57,4.61,RU,1609880501
Husavik,66.0449,-17.3389,32.0,92,40,2.24,IS,1609880376
Ajdabiya,30.7554,20.2263,57.15,48,100,6.73,LY,1609880668
Sur,22.5667,59.5289,66.15,43,0,7.7,OM,1609880361
Kariba,-16.5167,28.8,74.5,80,61,3.06,ZW,1609880668
Constitución,-35.3333,-72.4167,64.49,57,5,14.41,CL,1609880156
Leningradskiy,69.3833,178.4167,-9.65,88,100,14.72,RU,1609880400
Formosa do Rio Preto,-11.0483,-45.1931,82.26,50,0,2.77,BR,1609880669
Narsaq,60.9167,-46.05,24.8,49,20,5.82,GL,1609880449
Dicabisagan,17.0818,122.4157,75.09,87,53,6.96,PH,1609880669
Yerbogachën,61.2767,108.0108,-19.89,87,100,8.25,RU,1609880385
Bethanien,-26.502,17.1583,71.74,60,86,11.18,NA,1609880669
Portland,45.5234,-122.6762,50.0,70,90,12.75,US,1609880167
Naryan-Mar,67.6713,53.087,-3.57,92,77,9.71,RU,1609880475
Marsá Maţrūḩ,31.3525,27.2453,57.2,82,75,9.17,EG,1609880670
Port-Cartier,50.0334,-66.8654,25.0,85,99,4.7,CA,1609880670
New Norfolk,-42.7826,147.0587,60.01,62,73,1.99,AU,1609880356
Nyurba,63.2842,118.3319,-25.51,84,100,8.41,RU,1609880415
Prieska,-29.6641,22.7474,75.7,60,96,1.95,ZA,1609880670
Banda Aceh,5.5577,95.3222,78.85,78,66,12.88,ID,1609880432
Kolosovka,56.4678,73.611,-16.92,86,98,6.78,RU,1609880671
Iqaluit,63.7506,-68.5145,0.0,84,90,4.7,CA,1609880353
Namatanai,-3.6667,152.4333,76.05,90,100,4.72,PG,1609880498
Vila Velha,-20.3297,-40.2925,82.4,69,20,14.99,BR,1609880208
Tupã,-21.9347,-50.5136,84.09,58,99,8.77,BR,1609880440
Taree,-31.9,152.4667,73.0,100,75,5.82,AU,1609880440
Santo Tomas,14.1079,121.1414,77.0,83,20,4.7,PH,1609880672
Orsha,54.5153,30.4053,30.94,95,100,9.78,BY,1609880392
Presidencia Roque Sáenz Peña,-26.7852,-60.4388,84.0,57,69,3.0,AR,1609880672
Palora,-1.7,-77.9333,66.2,93,90,3.36,EC,1609880672
Sijunjung,-0.6876,100.9537,71.01,90,34,1.07,ID,1609880487
Itaituba,-4.2761,-55.9836,78.8,83,40,6.93,BR,1609880672
Saint-François,46.4154,3.9054,34.0,86,90,3.36,FR,1609880672
Guaratuba,-25.8828,-48.5747,82.4,78,75,5.82,BR,1609880673
Charters Towers,-20.1,146.2667,73.9,92,100,13.56,AU,1609880673
Palma di Montechiaro,37.1926,13.765,46.99,82,100,1.01,IT,1609880673
Kununurra,-15.7667,128.7333,80.6,100,70,6.85,AU,1609880360
Samarai,-10.6167,150.6667,83.32,80,100,9.46,PG,1609880395
La Ronge,55.1001,-105.2842,17.6,85,100,11.41,CA,1609880358
Nuuk,64.1835,-51.7216,28.4,92,75,28.86,GL,1609880356
Fare,-16.7,-151.0167,81.3,72,63,10.47,PF,1609880673
Kruisfontein,-34.0033,24.7314,70.0,84,62,1.01,ZA,1609880415
Follonica,42.9263,10.7616,46.99,84,64,4.03,IT,1609880674
Pampa,35.5362,-100.9599,62.6,25,1,28.86,US,1609880674
Diego de Almagro,-26.3667,-70.05,78.94,25,0,14.23,CL,1609880488
Asău,46.4333,26.4,41.0,70,100,5.86,RO,1609880387
Huilong,31.8111,121.655,41.0,73,77,11.48,CN,1609880674
Unaí,-16.3575,-46.9061,78.57,78,100,0.36,BR,1609880674
Acarí,-15.4311,-74.6158,77.43,58,90,9.84,PE,1609880674
Olafsvik,64.8945,-23.7142,35.92,79,73,16.49,IS,1609880675
Serowe,-22.3833,26.7167,74.16,55,78,5.1,BW,1609880675
Mount Isa,-20.7333,139.5,80.6,32,20,11.41,AU,1609880452
Batemans Bay,-35.7167,150.1833,64.99,98,24,5.79,AU,1609880417
Rairangpur,22.2676,86.1751,63.05,51,57,3.94,IN,1609880675
Puksoozero,62.5903,40.6066,9.43,96,86,4.45,RU,1609880675
São Domingos do Maranhão,-5.5758,-44.3853,79.18,81,18,1.63,BR,1609880675
Adré,13.4667,22.2,70.47,20,0,13.78,TD,1609880676
Kharan,28.5833,65.4167,40.87,57,0,3.58,PK,1609880676
Shingū,33.7333,135.9833,39.92,75,100,7.02,JP,1609880380
Kampot,10.6167,104.1833,78.8,69,40,5.82,KH,1609880676
Santa Catarina de Tepehuanes,25.35,-105.7333,70.05,20,100,12.37,MX,1609880676
Mitsamiouli,-11.3847,43.2844,82.18,74,12,9.86,KM,1609880676
Zemio,5.0314,25.1361,73.83,39,10,2.48,CF,1609880676
Bairiki Village,1.3292,172.9752,82.4,74,20,12.75,KI,1609880547
Sovetskiy,61.3614,63.5842,-14.08,90,100,5.41,RU,1609880492
Areosa,41.7178,-8.8571,41.0,86,0,7.7,PT,1609880677
Dolinsk,47.35,142.8,-18.4,75,40,4.47,RU,1609880677
Avera,33.194,-82.5271,62.6,36,40,11.41,US,1609880359
Lorengau,-2.0226,147.2712,83.53,75,72,8.28,PG,1609880354
Kyren,51.6828,102.1408,-14.01,75,93,0.58,RU,1609880678
Port Moresby,-9.4431,147.1797,78.24,85,86,3.78,PG,1609880678
Kandrian,-6.2167,149.55,79.86,83,98,3.56,PG,1609880678
Broken Hill,-31.95,141.4333,59.0,67,71,16.11,AU,1609880678
Casablanca,33.5928,-7.6192,59.0,100,75,21.92,MA,1609880570
Ust'-Kishert',57.3654,57.2495,8.71,94,83,9.1,RU,1609880678
Villablino,42.9393,-6.3194,30.99,88,75,3.18,ES,1609880678
Esperance,-33.8667,121.9,53.6,76,49,5.82,AU,1609880378
Skerries,53.5828,-6.1083,41.0,93,40,10.29,IE,1609880679
Weiser,44.251,-116.9693,44.6,56,1,5.82,US,1609880679
Batken,39.8333,71.0,11.25,64,69,5.21,KG,1609880679
Tabas,33.5959,56.9244,35.6,40,0,4.7,IR,1609880604
Kirakira,-10.4544,161.9205,83.66,66,91,5.03,SB,1609880679
Maragogi,-9.0122,-35.2225,78.82,70,13,7.61,BR,1609880484
Jumla,29.2747,82.1838,38.55,71,71,4.88,NP,1609880680
São José dos Pinhais,-25.5347,-49.2064,80.6,54,75,8.05,BR,1609880536
Rodrigues Alves,-7.738,-72.6509,86.0,70,75,6.93,BR,1609880495
Mackay,-21.15,149.2,77.0,94,90,6.93,AU,1609880558
Båtsfjord,70.6345,29.7185,33.8,85,75,21.92,NO,1609880680
Olutanga,7.3106,122.8464,80.37,80,78,8.95,PH,1609880680
Arrifes,37.7667,-25.7,55.4,87,75,20.8,PT,1609880680
Sotnikovo,51.8845,107.4791,-20.2,75,75,2.71,RU,1609880602
Ussel,45.55,2.3167,30.99,43,96,2.84,FR,1609880681
Tura,25.5198,90.2201,61.75,54,100,2.06,IN,1609880398
Provincia di Imperia,43.9667,7.7833,42.8,75,40,11.41,IT,1609880681
Kiama,-34.6833,150.8667,69.01,96,90,3.0,AU,1609880681
Gumdag,39.2061,54.5906,32.29,88,48,17.47,TM,1609880681
Camapuã,-19.5314,-54.0439,84.56,63,90,4.9,BR,1609880681
Lensk,60.7253,114.9278,-24.05,80,100,13.4,RU,1609880681
Fort Saint James,54.4333,-124.25,28.83,95,100,12.91,CA,1609880681
Arrondissement de Limoges,45.75,1.3333,30.99,100,90,4.7,FR,1609880682
Dalvik,65.9702,-18.5286,32.0,91,40,2.24,IS,1609880682
Altay,47.8667,88.1167,-1.98,59,0,5.12,CN,1609880682
Tshikapa,-6.4167,20.8,71.85,89,85,1.68,CD,1609880550
Hasaki,35.7333,140.8333,39.0,93,75,8.05,JP,1609880358
Pangai,-19.8,-174.35,82.4,94,75,11.41,TO,1609880682
Pakxan,18.3778,103.6601,59.85,82,63,4.76,LA,1609880682
Mukhtolovo,55.4644,43.1953,25.38,97,100,7.76,RU,1609880682
Velsk,61.0701,42.0983,13.46,97,90,3.98,RU,1609880683
Taldan,53.6667,124.8,-28.77,80,46,5.26,RU,1609880683
Savannah Bight,16.45,-85.85,81.0,74,75,9.8,HN,1609880646
Kirkenes,69.7271,30.0458,23.0,85,75,20.8,NO,1609880683
Ayr,55.4627,-4.6339,30.2,92,20,3.36,GB,1609880683
Vicksburg,32.3526,-90.8779,62.6,36,1,5.82,US,1609880683
Kropotkin,45.4375,40.5756,35.69,83,74,7.7,RU,1609880550
Tazovsky,67.4667,78.7,-13.65,88,41,12.41,RU,1609880683
Atasū,48.6814,71.6433,-0.71,85,41,6.55,KZ,1609880683
Papagaios,-19.4492,-44.7478,77.79,75,58,0.45,BR,1609880494
Pacific Grove,36.6177,-121.9166,59.0,62,1,3.36,US,1609880220
Srīsailain,16.0833,78.8667,67.46,95,90,3.89,IN,1609880684
Mahébourg,-20.4081,57.7,77.0,83,40,10.29,MU,1609880376
Bubaque,11.2833,-15.8333,80.8,70,59,10.89,GW,1609880366
Hualmay,-11.0964,-77.6139,72.37,77,83,9.13,PE,1609880489
Seoul,37.5683,126.9778,14.0,51,1,5.39,KR,1609880211
Amuntai,-2.4177,115.2494,73.56,93,68,0.47,ID,1609880684
Cao Bang,22.6667,106.25,57.27,60,100,2.3,VN,1609880685
Salaga,8.5508,-0.5188,85.69,28,0,2.66,GH,1609880658
Pangnirtung,66.1451,-65.7125,3.2,77,90,6.93,CA,1609880353
Mortka,59.3322,66.0214,-14.28,89,0,5.55,RU,1609880685
Matina,10.0761,-83.2895,82.4,69,40,9.17,CR,1609880685
Dārāb,28.7519,54.5444,45.79,48,0,4.25,IR,1609880685
Havre-St-Pierre,50.2334,-63.5986,21.2,79,1,3.36,CA,1609880357
Victor Harbor,-35.5667,138.6167,57.99,79,100,3.0,AU,1609880685
Xicoténcatl,23.0167,-98.8833,82.0,38,0,4.0,MX,1609880685
Isabela,6.7085,121.9711,77.52,80,100,2.66,PH,1609880686
Iāwar,23.0,76.5,64.53,47,0,4.36,IN,1609880686
Latung,5.5,120.8833,82.78,76,100,13.85,PH,1609880507
Kokstad,-30.5472,29.4241,62.15,94,98,2.93,ZA,1609880686
Sonneberg,50.35,11.1667,32.0,84,54,5.12,DE,1609880687
Nhulunbuy,-12.2333,136.7667,80.6,94,100,4.7,AU,1609880476
El Salvador,13.8333,-88.9167,87.8,52,20,8.05,SV,1609880487
Bāglung,28.2719,83.5898,55.51,40,100,5.86,NP,1609880687
Kamenka,51.3223,42.7678,18.0,83,97,11.59,RU,1609880491
Sechura,-5.5569,-80.8222,76.44,60,73,16.51,PE,1609880136
Zelenoborsk,61.4669,64.0333,-14.15,89,100,5.75,RU,1609880687
Bud,39.447,-86.1758,34.0,89,100,6.51,US,1609880687
Sinop Province,41.7711,34.8709,47.77,74,100,6.06,TR,1609880673
Poplar Bluff,36.757,-90.3929,50.0,61,1,8.05,US,1609880564
Wanning,18.8003,110.3967,66.45,77,100,7.85,CN,1609880688
Marystown,47.1666,-55.1483,37.29,87,100,15.61,CA,1609880472
São José da Coroa Grande,-8.8978,-35.1478,78.96,70,17,7.94,BR,1609880480
Grand-Lahou,5.1367,-5.0242,79.43,85,77,8.23,CI,1609880688
Kozhva,65.1073,57.0459,1.65,93,83,6.87,RU,1609880533
Makakilo City,21.3469,-158.0858,77.0,69,90,5.82,US,1609880534
Ilhabela,-23.7781,-45.3581,77.88,77,45,8.37,BR,1609880689
Tromsø,69.6496,18.957,41.0,80,75,29.97,NO,1609880689
Kharitonovo,61.4009,47.4978,7.95,95,61,4.85,RU,1609880689
Moerai,-22.4333,-151.3333,79.61,74,54,13.89,PF,1609880446
Great Yarmouth,52.6083,1.7305,41.0,80,100,12.75,GB,1609880689
Orán,-23.1322,-64.326,82.99,63,95,1.5,AR,1609880440
Burgeo,47.6167,-57.6152,32.14,93,0,22.73,CA,1609880689
Bukama,-9.2,25.85,69.69,93,100,0.89,CD,1609880690
Cascais,38.6979,-9.4215,46.0,75,0,8.05,PT,1609880368
Sherpur,25.0188,90.0175,65.44,55,93,1.59,BD,1609880690
Mezhdurechensk,53.6942,88.0603,-11.15,82,0,2.89,RU,1609880690
College,64.8569,-147.8028,-2.99,75,40,2.91,US,1609880293
Nabire,-3.3667,135.4833,76.53,88,100,2.55,ID,1609880486
Acapulco de Juárez,16.8634,-99.8901,84.2,74,20,10.29,MX,1609880485
Horki,54.2861,30.9842,30.58,94,100,9.55,BY,1609880691
Krasnosel'kup,65.7,82.4667,-18.27,87,98,10.8,RU,1609880396
Port Keats,-14.25,129.55,81.73,80,91,3.06,AU,1609880691
Jining,35.405,116.5814,24.46,92,0,6.06,CN,1609880441
Idritsa,56.3316,28.8988,32.04,98,100,7.23,RU,1609880691
Mocuba,-16.8392,36.9856,75.02,86,1,2.82,MZ,1609880691
Coyhaique,-45.5752,-72.0662,77.0,22,0,10.29,CL,1609880222
El Reno,35.5323,-97.955,59.0,50,1,19.46,US,1609880437
Honiara,-9.4333,159.95,82.0,76,90,4.85,SB,1609880101
Shahrud,36.4182,54.9763,28.74,87,0,4.27,IR,1609880692
Sidi Ali,36.0998,0.4206,49.23,69,94,4.32,DZ,1609880692
Santa Cruz de la Sierra,-17.8,-63.1667,71.6,94,90,5.82,BO,1609880641
Porto Walter,-8.2686,-72.7439,78.75,92,97,3.38,BR,1609880556
Aykhal,66.0,111.5,-2.2,84,90,4.47,RU,1609880434
Santa Vitória do Palmar,-33.5189,-53.3681,74.66,80,85,16.33,BR,1609880515
Varadero,23.1536,-81.2514,71.6,64,40,11.41,CU,1609880693
Alma,48.5501,-71.6491,28.99,79,90,3.36,CA,1609880447
Phalaborwa,-23.943,31.1411,80.6,65,65,2.24,ZA,1609880693
Karaton,-6.3424,106.1045,77.0,88,40,2.24,ID,1609880499
Te Anau,-45.4167,167.7167,54.55,92,100,0.83,NZ,1609880355
Aklavik,68.2191,-135.0107,-18.4,82,100,1.12,CA,1609880380
Olovyannaya,50.95,115.5667,-20.49,78,76,13.6,RU,1609880693
Vostok,46.4856,135.8833,-15.84,88,89,4.0,RU,1609880430
Nouadhibou,20.931,-17.0347,69.8,77,100,10.29,MR,1609880377
Mareeba,-17.0,145.4333,78.01,96,100,1.99,AU,1609880694
Camacha,33.0833,-16.3333,62.6,88,40,10.29,PT,1609880358
Muravlenko,63.7898,74.523,-21.21,83,0,11.45,RU,1609880694
Balaipungut,1.05,101.2833,73.36,96,61,1.92,ID,1609880437
Vila,42.0304,-8.1588,32.0,89,2,3.24,PT,1609880468
Buraidah,26.326,43.975,59.0,87,0,9.17,SA,1609880371
East Moline,41.5009,-90.4443,33.01,92,90,6.93,US,1609880694
Valparaíso,-33.0393,-71.6273,66.2,59,0,9.17,CL,1609880333
Port-Gentil,-0.7193,8.7815,80.6,88,40,8.05,GA,1609880474
Oktyabr'skoye,43.0645,44.7417,28.4,92,6,2.24,RU,1609880695
Matiari,25.5961,68.4467,51.8,81,0,4.7,PK,1609880695
Santa Barbara,34.7333,-120.0343,62.01,59,1,6.42,US,1609880314
Agadez,19.75,10.25,76.78,18,0,9.51,NE,1609880695
Kuruman,-27.4524,23.4325,68.68,76,2,9.95,ZA,1609880695
Harper,4.375,-7.7169,79.21,84,81,8.72,LR,1609880594
Umm Hājar,13.2954,19.6966,78.49,16,1,9.71,TD,1609880696
Satinka,52.3792,41.6819,16.32,96,76,10.38,RU,1609880696
Ferrol,43.4832,-8.2369,35.6,100,10,3.36,ES,1609880696
Lagoa,39.05,-27.9833,59.11,78,100,39.46,PT,1609880356
Abu Kamal,34.4506,40.9171,52.16,44,53,3.96,SY,1609880696
Fuling,29.7022,107.3919,44.85,79,93,3.13,CN,1609880696
Svetlaya,46.5389,138.3297,-2.83,82,0,9.37,RU,1609880536
Chicama,-7.8447,-79.1469,71.6,78,48,9.17,PE,1609880697
Sharjah city,25.3573,55.4033,66.2,54,0,4.7,AE,1609880697
Havelock,34.8791,-76.9013,48.99,93,90,8.05,US,1609880371
East Hemet,33.74,-116.9389,72.0,35,33,2.59,US,1609880697
Tevaitoa,-16.7833,-151.5,81.21,72,72,12.28,PF,1609880697
Nome,64.5011,-165.4064,3.2,84,90,6.93,US,1609880396
Palekastro,35.2,26.25,55.99,62,32,5.39,GR,1609880698
Sokoto,13.0609,5.239,79.02,16,0,8.79,NG,1609880698
Palana,59.1167,159.9667,-9.04,90,71,4.18,RU,1609880698
Gusinoye Ozero,51.1144,106.2614,-18.24,81,100,6.4,RU,1609880698
São Filipe,14.8961,-24.4956,75.56,73,100,5.53,CV,1609880366
Katherine,-14.4667,132.2667,82.4,78,40,4.7,AU,1609880698
Bilibino,68.0546,166.4372,-30.66,81,100,2.71,RU,1609880501
Bathsheba,13.2167,-59.5167,82.4,65,40,17.22,BB,1609880543
Quelimane,-17.8786,36.8883,82.4,78,20,5.82,MZ,1609880699
Bilma,18.6853,12.9164,73.2,20,0,5.28,NE,1609880550
Gizo Government Station,-8.103,156.8419,83.95,69,91,8.43,SB,1609880699
Bonthe,7.5264,-12.505,81.14,80,0,9.46,SL,1609880699
Verkhoshizhem'ye,58.011,49.1038,22.08,98,100,7.78,RU,1609880699
Eustis,28.8528,-81.6853,70.0,52,40,11.41,US,1609880699
Codrington,-38.2667,141.9667,56.95,79,100,13.78,AU,1609880368
Kavaratti,10.5669,72.642,82.2,76,99,7.45,IN,1609880411
Redmond,47.674,-122.1215,45.0,72,100,6.96,US,1609880614
Inuvik,68.3499,-133.7218,-18.4,82,100,1.12,CA,1609880700
Lethem,3.3803,-59.7968,88.36,52,58,10.09,GY,1609880700
Vestmannaeyjar,63.4427,-20.2734,38.91,75,100,14.41,IS,1609880386
Potiskum,11.7091,11.0694,76.26,18,41,9.37,NG,1609880700
Santa Maria,-29.6842,-53.8069,80.26,62,99,6.85,BR,1609880229
Alice Springs,-23.7,133.8833,69.8,40,42,11.41,AU,1609880444
Santander,43.4647,-3.8044,41.0,100,75,2.24,ES,1609880701
Whitehorse,60.7161,-135.0538,19.4,85,75,21.92,CA,1609880405
Mbulu,-3.85,35.5333,60.44,95,75,5.48,TZ,1609880701
Tuatapere,-46.1333,167.6833,61.88,68,99,3.62,NZ,1609880375
Inhambane,-23.865,35.3833,78.67,80,23,7.4,MZ,1609880701
Rio Grande,-32.035,-52.0986,77.0,88,40,11.41,BR,1609880414
Chukhloma,58.7525,42.6825,18.63,98,100,4.12,RU,1609880702
Saint-Nazaire,47.2833,-2.2,37.99,86,90,4.7,FR,1609880702
Broome,42.2506,-75.833,35.01,86,90,6.93,US,1609880388
Noumea,-22.2763,166.4572,82.99,94,75,2.24,NC,1609880315
Bacolod City,10.6667,122.95,76.75,82,94,10.51,PH,1609880442
Kānkon,15.0167,74.0167,75.9,82,14,5.91,IN,1609880702
Alghero,40.5589,8.3181,46.4,75,20,8.05,IT,1609880703
Lompoc,34.6391,-120.4579,64.99,67,1,12.75,US,1609880191
Ostrovnoy,68.0531,39.5131,15.15,95,56,22.95,RU,1609880384
Dezhou,37.4486,116.2925,19.31,78,0,8.97,CN,1609880703
Torbay,47.6666,-52.7314,36.0,100,90,24.16,CA,1609880361
Nyrob,60.733,56.7202,-0.02,92,0,2.59,RU,1609880703
Dhidhdhoo,6.8833,73.1,82.42,78,80,15.88,MV,1609880704
Anadyr,64.75,177.4833,-16.01,75,0,4.47,RU,1609880359
Kalianget,-7.05,113.9333,78.48,85,99,8.14,ID,1609880704
Santa Fe,-31.6333,-60.7,88.0,44,93,8.01,AR,1609880704
Durazno,-33.4131,-56.5006,87.8,48,75,11.41,UY,1609880136
‘Āhuimanu,21.4447,-157.8378,77.0,69,90,5.82,US,1609880438
Chinsali,-10.5414,32.0816,64.49,95,96,2.98,ZM,1609880705
Ceres,37.5949,-120.9577,55.0,81,1,9.17,US,1609880705
Kenai,60.5544,-151.2583,28.0,68,1,20.8,US,1609880705
Yamada,39.4667,141.95,26.01,88,100,4.52,JP,1609880705
Châteaudun,48.0833,1.3333,35.6,91,100,6.93,FR,1609880705
Bogorodskoye,56.55,37.8833,27.21,98,100,4.18,RU,1609880705
Kaili,-3.4626,120.2147,67.6,96,100,1.21,ID,1609880705
Fairbanks,64.8378,-147.7164,-2.99,76,20,2.64,US,1609880221
Bāfq,31.6128,55.4107,37.4,70,0,5.46,IR,1609880706
Santa Isabel,-23.3156,-46.2214,86.0,48,75,9.17,BR,1609880514
Omsukchan,62.5333,155.8,-30.66,81,100,3.98,RU,1609880706
Walla Walla,46.0646,-118.343,54.0,45,1,10.29,US,1609880706
Buchanan,5.8808,-10.0467,78.8,94,40,8.21,LR,1609880455
Mbandaka,0.0487,18.2603,75.09,85,83,2.35,CD,1609880706
Zhob,31.3411,69.4481,41.16,65,0,5.01,PK,1609880566
Verkhnetulomskiy,68.6073,31.7962,-5.8,83,20,5.35,RU,1609880707
Japura,-0.3167,102.35,71.92,94,40,2.15,ID,1609880707
Tautira,-17.7333,-149.15,82.4,74,75,4.7,PF,1609880437
Taltal,-25.4,-70.4833,70.09,63,22,7.76,CL,1609880420
Am Timan,11.0297,20.2827,75.94,18,0,7.18,TD,1609880538
Kabanjahe,3.1001,98.4908,75.2,100,40,5.82,ID,1609880707
Pobé,6.9801,2.6649,80.2,72,0,8.32,BJ,1609880707
Bontang,0.1333,117.5,77.09,85,100,2.55,ID,1609880708
Kenda,23.2,86.5333,65.53,46,97,2.53,IN,1609880708
Velbert,51.3333,7.05,37.0,90,100,6.35,DE,1609880708
Bouza,14.4229,6.0428,76.01,17,0,6.02,NE,1609880708
Lar,26.2039,83.9717,65.86,60,95,5.91,IN,1609880708
Alta Floresta,-9.8756,-56.0861,79.43,92,100,2.86,BR,1609880406
Amga,60.8953,131.9608,-32.58,82,100,2.55,RU,1609880708
Kumluca,36.3703,30.2869,59.9,73,68,4.38,TR,1609880577
Katsuura,35.1333,140.3,43.0,70,75,13.87,JP,1609880373
Cockburn Town,21.4612,-71.1419,78.8,54,20,6.93,TC,1609880709
Mabaruma,8.2,-59.7833,79.11,84,74,3.94,GY,1609880416
Vila do Maio,15.1333,-23.2167,77.0,50,0,13.87,CV,1609880709
Derzhavīnsk,51.1,66.3167,-9.35,88,0,9.15,KZ,1609880497
Kilimatinde,-5.85,34.95,67.39,82,97,0.67,TZ,1609880709
Peniche,39.3558,-9.3811,42.01,70,0,5.01,PT,1609880495
Brae,60.3964,-1.353,41.0,93,100,3.36,GB,1609880509
Saint-Ambroise,48.5501,-71.3324,28.99,79,90,8.05,CA,1609880710
